%time,field.header.seq,field.header.stamp,field.header.frame_id,field.position.x,field.position.y,field.position.z,field.velocity.x,field.velocity.y,field.velocity.z,field.acceleration.x,field.acceleration.y,field.acceleration.z,field.jerk.x,field.jerk.y,field.jerk.z,field.yaw,field.yaw_dot,field.kx0,field.kx1,field.kx2,field.kv0,field.kv1,field.kv2,field.trajectory_id,field.trajectory_flag
2217512000000,0,2217511000000,world,-0.0856141558272,-0.021758246307,2.45023887035,0.00225223774697,0.0148717419777,-0.00994638167073,0.0050265572231,-0.00328613765211,-1.69112232381e-05,0.0,0.0,0.0,0.0,-1.5707963,0.0,0.0,0.0,0.0,0.0,0.0,1,1
2217522000000,1,2217521000000,world,-0.0855911029755,-0.0216098757555,2.45013940475,0.0023862472415,0.0147841121769,-0.00994683222166,0.0217753416842,-0.0142398225174,-7.31989637147e-05,0.0,0.0,0.0,-0.015707963,-2.35619445,0.0,0.0,0.0,0.0,0.0,0.0,1,1
2217532000000,2,2217532000000,world,-0.0855631653038,-0.0214483550201,2.45002998392,0.00272710614602,0.0145612043357,-0.00994797795109,0.0401990045913,-0.0262888758692,-0.000135115478239,0.0,0.0,0.0,-0.0329867223,-2.748893525,0.0,0.0,0.0,0.0,0.0,0.0,1,1
2217542000000,3,2217541000000,world,-0.0855367897911,-0.0213185019678,2.44994044596,0.00315672976441,0.0142802420292,-0.00994942195574,0.0552729106063,-0.0361471922479,-0.000185774444668,0.0,0.0,0.0,-0.047123889,-2.9452430625,0.0,0.0,0.0,0.0,0.0,0.0,1,1
2217552000000,4,2217551000000,world,-0.0855021797015,-0.0211776894685,2.44984094151,0.00379320279278,0.0138640016824,-0.00995156113889,0.0720216950673,-0.0471008771132,-0.000242062185145,0.0,0.0,0.0,-0.062831852,-3.04341783125,0.0,0.0,0.0,0.0,0.0,0.0,1,1
2217562000000,5,2217562000000,world,-0.0854557256143,-0.0210282780423,2.44973145845,0.00468677158451,0.0132796222407,-0.00995456436376,0.0904453579745,-0.059149930465,-0.000303978699669,0.0,0.0,0.0,-0.0801106113,-3.09250521563,0.0,0.0,0.0,0.0,0.0,0.0,1,1
2217572000000,6,2217571000000,world,-0.0854096781353,-0.0209112901016,2.44964185437,0.00556861238335,0.0127029104428,-0.00995752813741,0.105519263989,-0.0690082468437,-0.000354637666098,0.0,0.0,0.0,-0.094247778,-3.11704890781,0.0,0.0,0.0,0.0,0.0,0.0,1,1
2217581000000,7,2217581000000,world,-0.0853484369019,-0.020787893971,2.44954226042,0.00670754894554,0.0119580595501,-0.00996135595277,0.122268048451,-0.079961931709,-0.000410925406575,0.0,0.0,0.0,-0.125663704,-3.12932075391,0.0,0.0,0.0,0.0,0.0,0.0,1,1
2217591000000,8,2217591000000,world,-0.0852749688636,-0.0206724940335,2.44944262538,0.00801397335236,0.0111036718086,-0.00996574664554,0.139016832912,-0.0909156165742,-0.000467213147051,0.0,0.0,0.0,-0.15707963,-3.13545667695,0.0,0.0,0.0,0.0,0.0,0.0,1,1
2217601000000,9,2217601000000,world,-0.085187599142,-0.0205661856576,2.44934294361,0.00948788560378,0.0101397472186,-0.00997070021571,0.155765617373,-0.101869301439,-0.000523500887528,0.0,0.0,0.0,-0.188495556,-3.13852463848,0.0,0.0,0.0,0.0,0.0,0.0,1,1
2217611000000,10,2217611000000,world,-0.0850846528587,-0.0204700642119,2.4492432095,0.0111292856998,0.00906628577985,-0.00997621666329,0.172514401834,-0.112822986305,-0.000579788628005,0.0,0.0,0.0,-0.219911482,-3.14005861924,0.0,0.0,0.0,0.0,0.0,0.0,1,1
2217622000000,11,2217621000000,world,-0.0849644551352,-0.0203852250648,2.4491434174,0.0129381736405,0.00788328749248,-0.00998229598827,0.189263186295,-0.12377667117,-0.000636076368481,0.0,0.0,0.0,-0.235619445,-3.14082560962,0.0,0.0,0.0,0.0,0.0,0.0,1,1
2217631000000,12,2217631000000,world,-0.0848253310931,-0.0203127635849,2.4490435617,0.0149145494257,0.00659075235645,-0.00998893819066,0.206011970756,-0.134730356035,-0.000692364108958,0.0,0.0,0.0,-0.251327408,-3.14120910481,0.0,0.0,0.0,0.0,0.0,0.0,1,1
2217642000000,13,2217641000000,world,-0.0846656058539,-0.0202537751405,2.44894363676,0.0170584130556,0.00518868037178,-0.00999614327045,0.222760755217,-0.145684040901,-0.000748651849435,0.0,0.0,0.0,-0.267035371,-3.1414008524,0.0,0.0,0.0,0.0,0.0,0.0,1,1
2217651000000,14,2217651000000,world,-0.0844836045392,-0.0202093551003,2.44884363696,0.01936976453,0.00367707153844,-0.0100039112276,0.239509539678,-0.156637725766,-0.000804939589911,0.0,0.0,0.0,-0.282743334,-3.1414967262,0.0,0.0,0.0,0.0,0.0,0.0,1,1
2217661000000,15,2217661000000,world,-0.0842776522705,-0.0201805988326,2.44874355666,0.0218486038491,0.00205592585646,-0.0100122420622,0.256258324139,-0.167591410631,-0.000861227330388,0.0,0.0,0.0,-0.298451297,-3.1415446631,0.0,0.0,0.0,0.0,0.0,0.0,1,1
2217671000000,16,2217671000000,world,-0.0840460741694,-0.020168601706,2.44864339024,0.0244949310128,0.000325243325822,-0.0100211357743,0.2730071086,-0.178545095496,-0.000917515070865,0.0,0.0,0.0,-0.31415926,-3.14156863155,0.0,0.0,0.0,0.0,0.0,0.0,1,1
2217681000000,17,2217681000000,world,-0.0837871953574,-0.0201744590889,2.44854313207,0.0273087460211,-0.00151497605347,-0.0100305923637,0.289755893061,-0.189498780362,-0.000973802811341,0.0,0.0,0.0,-0.329867223,-3.14158061578,0.0,0.0,0.0,0.0,0.0,0.0,1,1
2217692000000,18,2217691000000,world,-0.0834993409561,-0.0201992663499,2.44844277652,0.030290048874,-0.00346473228141,-0.0100406118305,0.306504677522,-0.200452465227,-0.00103009055182,0.0,0.0,0.0,-0.345575186,-3.14158660789,0.0,0.0,0.0,0.0,0.0,0.0,1,1
2217701000000,19,2217701000000,world,-0.0831808360871,-0.0202441188574,2.44834231796,0.0334388395716,-0.00552402535801,-0.0100511941747,0.323253461983,-0.211406150092,-0.00108637829229,0.0,0.0,0.0,-0.361283149,-3.14158960394,0.0,0.0,0.0,0.0,0.0,0.0,1,1
2217711000000,20,2217711000000,world,-0.0828300058719,-0.0203101119799,2.44824175076,0.0367551181137,-0.00769285528325,-0.0100623393963,0.340002246444,-0.222359834957,-0.00114266603277,0.0,0.0,0.0,-0.376991112,-3.14159110197,0.0,0.0,0.0,0.0,0.0,0.0,1,1
2217721000000,21,2217721000000,world,-0.082445175432,-0.0203983410859,2.44814106929,0.0402388845005,-0.00997122205715,-0.0100740474954,0.356751030905,-0.233313519823,-0.00119895377325,0.0,0.0,0.0,-0.392699075,-3.14159185099,0.0,0.0,0.0,0.0,0.0,0.0,1,1
2217732000000,22,2217731000000,world,-0.0820246698891,-0.0205099015438,2.44804026793,0.0438901387318,-0.0123591256797,-0.0100863184718,0.373499815366,-0.244267204688,-0.00125524151372,0.0,0.0,0.0,-0.408407038,-3.14159222549,0.0,0.0,0.0,0.0,0.0,0.0,1,1
2217742000000,23,2217741000000,world,-0.0815668143646,-0.0206458887223,2.44793934105,0.0477088808078,-0.0148565661509,-0.0100991523256,0.390248599827,-0.255220889553,-0.0013115292542,0.0,0.0,0.0,-0.424115001,-3.14159241275,0.0,0.0,0.0,0.0,0.0,0.0,1,1
2217751000000,24,2217751000000,world,-0.0810699339801,-0.0208073979897,2.44783828301,0.0516951107284,-0.0174635434708,-0.0101125490569,0.406997384289,-0.266174574418,-0.00136781699468,0.0,0.0,0.0,-0.439822964,-3.14159250637,0.0,0.0,0.0,0.0,0.0,0.0,1,1
2217761000000,25,2217761000000,world,-0.0805323538572,-0.0209955247145,2.44773708819,0.0558488284936,-0.0201800576393,-0.0101265086655,0.42374616875,-0.277128259284,-0.00142410473515,0.0,0.0,0.0,-0.455530927,-3.14159255319,0.0,0.0,0.0,0.0,0.0,0.0,1,1
2217772000000,26,2217771000000,world,-0.0799523991174,-0.0212113642653,2.44763575096,0.0601700341034,-0.0230061086564,-0.0101410311516,0.440494953211,-0.288081944149,-0.00148039247563,0.0,0.0,0.0,-0.47123889,-3.14159257659,0.0,0.0,0.0,0.0,0.0,0.0,1,1
2217781000000,27,2217781000000,world,-0.0793283948823,-0.0214560120105,2.44753426569,0.0646587275578,-0.0259416965223,-0.010156116515,0.457243737672,-0.299035629014,-0.00153668021611,0.0,0.0,0.0,-0.502654816,-3.1415925883,0.0,0.0,0.0,0.0,0.0,0.0,1,1
2217792000000,28,2217792000000,world,-0.0785891140892,-0.021759705317,2.44742245419,0.0697897388181,-0.0292973582349,-0.0101733605382,0.475667400579,-0.311084682366,-0.00159859673063,0.0,0.0,0.0,-0.5199335753,-3.14159259415,0.0,0.0,0.0,0.0,0.0,0.0,1,1
2217802000000,29,2217802000000,world,-0.0778671541846,-0.0220684156949,2.44732063972,0.0746301567462,-0.0324629734828,-0.0101896279443,0.49241618504,-0.322038367231,-0.00165488447111,0.0,0.0,0.0,-0.5356415383,-3.14159259707,0.0,0.0,0.0,0.0,0.0,0.0,1,1
2217812000000,30,2217812000000,world,-0.0770959526614,-0.0224093299095,2.44721865976,0.0796380625189,-0.0357381255795,-0.0102064582277,0.509164969501,-0.332992052097,-0.00171117221159,0.0,0.0,0.0,-0.5513495013,-3.14159259854,0.0,0.0,0.0,0.0,0.0,0.0,1,1
2217822000000,31,2217821000000,world,-0.0763583854198,-0.0227445923051,2.44712673165,0.0842883798215,-0.0387794164721,-0.0102220867429,0.524238875516,-0.342850368475,-0.00176183117801,0.0,0.0,0.0,-0.565486668,-3.14159259927,0.0,0.0,0.0,0.0,0.0,0.0,1,1
2217831000000,32,2217831000000,world,-0.0754890105314,-0.0231497115497,2.44702442175,0.089614512499,-0.0422626885811,-0.0102399864934,0.540987659977,-0.353804053341,-0.00181811891849,0.0,0.0,0.0,-0.578696231234,-2.891752623,0.0,0.0,0.0,0.0,0.0,0.0,1,1
2217842000000,33,2217841000000,world,-0.074565536877,-0.0235902111996,2.44692193004,0.0951081330211,-0.0458554975389,-0.0102584491213,0.557736444438,-0.364757738206,-0.00187440665897,0.0,0.0,0.0,-0.585729268953,-2.14918008346,0.0,0.0,0.0,0.0,0.0,0.0,1,1
2217851000000,34,2217851000000,world,-0.0735862895781,-0.0240671866233,2.44681925089,0.100769241388,-0.0495578433452,-0.0102774746266,0.574485228899,-0.375711423071,-0.00193069439944,0.0,0.0,0.0,-0.589667478397,-1.46841098609,0.0,0.0,0.0,0.0,0.0,0.0,1,1
2217862000000,35,2217861000000,world,-0.0725495937564,-0.0245817331893,2.44671637867,0.106597837599,-0.0533697260003,-0.0102970630093,0.59123401336,-0.386665107936,-0.00198698213992,0.0,0.0,0.0,-0.592051964433,-0.972654096654,0.0,0.0,0.0,0.0,0.0,0.0,1,1
2217872000000,36,2217872000000,world,-0.0713408763411,-0.0251924364036,2.44660298952,0.113202741892,-0.057689311981,-0.0103192603536,0.609657676267,-0.398714161288,-0.00204889865445,0.0,0.0,0.0,-0.593694136922,-0.635615456442,0.0,0.0,0.0,0.0,0.0,0.0,1,1
2217881000000,37,2217881000000,world,-0.0702971570305,-0.0257279212222,2.44651003251,0.118757493555,-0.0613221018563,-0.0103379284069,0.624731582282,-0.408572477667,-0.00209955762087,0.0,0.0,0.0,-0.594878118548,-0.449361242205,0.0,0.0,0.0,0.0,0.0,0.0,1,1
2217891000000,38,2217891000000,world,-0.0690780663694,-0.0263617534261,2.44640654731,0.125088553301,-0.0654625950573,-0.0103592054218,0.641480366743,-0.419526162532,-0.00215584536135,0.0,0.0,0.0,-0.595868031078,-0.323671874133,0.0,0.0,0.0,0.0,0.0,0.0,1,1
2217902000000,39,2217902000000,world,-0.067662911177,-0.0271074662938,2.44629246437,0.132246167481,-0.0701436526386,-0.0103832602616,0.659904029651,-0.431575215884,-0.00221776187588,0.0,0.0,0.0,-0.596794527777,-0.2460629097,0.0,0.0,0.0,0.0,0.0,0.0,1,1
2217911000000,40,2217911000000,world,-0.0664457718622,-0.0277563682279,2.44619892452,0.138247332868,-0.0740693688691,-0.0104034511607,0.671108964295,-0.439551441503,-0.0022704720719,0.0,0.0,0.0,-0.59760624421,-0.213222169562,0.0,0.0,0.0,0.0,0.0,0.0,1,1
2217922000000,41,2217922000000,world,-0.0648843636534,-0.0285978279668,2.4460843478,0.145652837365,-0.0789327490221,-0.0104288082608,0.675346398846,-0.444699495402,-0.00233990976159,0.0,0.0,0.0,-0.598432545771,-0.181729408541,0.0,0.0,0.0,0.0,0.0,0.0,1,1
2217932000000,42,2217932000000,world,-0.0633940037563,-0.0294094684326,2.44597994167,0.15242556242,-0.0834031442211,-0.0104525229842,0.679198612073,-0.4493795444,-0.00240303493404,0.0,0.0,0.0,-0.599222760803,-0.16988620744,0.0,0.0,0.0,0.0,0.0,0.0,1,1
2217941000000,43,2217941000000,world,-0.0619946193463,-0.0301783534647,2.44588577087,0.158553951392,-0.0874665143192,-0.0104744059556,0.682665603978,-0.453591588499,-0.00245984758925,0.0,0.0,0.0,-0.599953067678,-0.166088312052,0.0,0.0,0.0,0.0,0.0,0.0,1,1
2217952000000,44,2217951000000,world,-0.0603748823487,-0.0310757761881,2.44578090277,0.165399868498,-0.0920258304491,-0.0104993200573,0.686517817205,-0.458271637498,-0.0025229727617,0.0,0.0,0.0,-0.600686088363,-0.156346224576,0.0,0.0,0.0,0.0,0.0,0.0,1,1
2217961000000,45,2217961000000,world,-0.0586864935693,-0.0320190260753,2.44567578237,0.172284307736,-0.0966319470691,-0.0105248654108,0.690370030433,-0.462951686497,-0.00258609793415,0.0,0.0,0.0,-0.60141569508,-0.151133783928,0.0,0.0,0.0,0.0,0.0,0.0,1,1
2217972000000,46,2217971000000,world,-0.0569290677868,-0.0330085711312,2.44557040335,0.179207269106,-0.101284864179,-0.010551042016,0.694222243661,-0.467631735496,-0.0026492231066,0.0,0.0,0.0,-0.602138872045,-0.147884588526,0.0,0.0,0.0,0.0,0.0,0.0,1,1
2217981000000,47,2217981000000,world,-0.05510221978,-0.0340448793605,2.44546475942,0.186168752609,-0.105984581779,-0.010577849873,0.698074456888,-0.472311784495,-0.00271234827905,0.0,0.0,0.0,-0.602854159411,-0.145471030862,0.0,0.0,0.0,0.0,0.0,0.0,1,1
2217992000000,48,2217991000000,world,-0.0532055643275,-0.0351284187684,2.44535884425,0.193168758244,-0.110731099869,-0.0106052889816,0.701926670116,-0.476991833494,-0.0027754734515,0.0,0.0,0.0,-0.603560875142,-0.143407088497,0.0,0.0,0.0,0.0,0.0,0.0,1,1
2218002000000,49,2218002000000,world,-0.0510381559684,-0.0363754226919,2.44524201676,0.200913257505,-0.116006324334,-0.0106362010969,0.706164104666,-0.482139887393,-0.00284491114119,0.0,0.0,0.0,-0.604292925135,-0.138253543586,0.0,0.0,0.0,0.0,0.0,0.0,1,1
2218012000000,50,2218012000000,world,-0.0489936509845,-0.0375596709305,2.44513551145,0.207994159618,-0.120851123453,-0.0106649658341,0.710016317893,-0.486819936391,-0.00290803631364,0.0,0.0,0.0,-0.604998460585,-0.139680316824,0.0,0.0,0.0,0.0,0.0,0.0,1,1
2218021000000,51,2218021000000,world,-0.0470929010827,-0.0386671041116,2.44503940821,0.214399907943,-0.125251457079,-0.0106913938179,0.713483309798,-0.49103198049,-0.00296484896885,0.0,0.0,0.0,-0.605652955854,-0.142561854966,0.0,0.0,0.0,0.0,0.0,0.0,1,1
2218031000000,52,2218031000000,world,-0.0449131636342,-0.0399442482822,2.44493234498,0.221554002107,-0.130185177129,-0.0107213579335,0.717335523026,-0.495712029489,-0.0030279741413,0.0,0.0,0.0,-0.606311241431,-0.137109485142,0.0,0.0,0.0,0.0,0.0,0.0,1,1
2218041000000,53,2218041000000,world,-0.0426616926335,-0.0412709636558,2.44482497895,0.228746618403,-0.135165697669,-0.0107519533007,0.721187736253,-0.500392078488,-0.00309109931375,0.0,0.0,0.0,-0.606967029985,-0.134133597992,0.0,0.0,0.0,0.0,0.0,0.0,1,1
2218051000000,54,2218051000000,world,-0.0403381028591,-0.0426477182372,2.44471730381,0.235977756832,-0.140193018698,-0.0107831799197,0.725039949481,-0.505072127487,-0.0031542244862,0.0,0.0,0.0,-0.607617223424,-0.132086142927,0.0,0.0,0.0,0.0,0.0,0.0,1,1
2218062000000,55,2218062000000,world,-0.037698397162,-0.0442205021257,2.4445984966,0.243976502166,-0.145777126397,-0.0108182582964,0.729277384031,-0.510220181386,-0.00322366217589,0.0,0.0,0.0,-0.608291882598,-0.127375723675,0.0,0.0,0.0,0.0,0.0,0.0,1,1
2218072000000,56,2218071000000,world,-0.0354730261041,-0.0455532170432,2.44450100095,0.250555600086,-0.150388062228,-0.0108475269129,0.732744375936,-0.514432225485,-0.0032804748311,0.0,0.0,0.0,-0.608911387692,-0.132521761143,0.0,0.0,0.0,0.0,0.0,0.0,1,1
2218082000000,57,2218081000000,world,-0.0329307686809,-0.0470828972776,2.44439236061,0.257902304912,-0.155555784728,-0.0108806472871,0.736596589163,-0.519112274484,-0.00334360000355,0.0,0.0,0.0,-0.609530667234,-0.128188834797,0.0,0.0,0.0,0.0,0.0,0.0,1,1
2218092000000,58,2218091000000,world,-0.0303148515988,-0.0486644887394,2.4442833859,0.265287531869,-0.160770307718,-0.010914398913,0.740448802391,-0.523792323483,-0.003406725176,0.0,0.0,0.0,-0.610145663727,-0.125594066703,0.0,0.0,0.0,0.0,0.0,0.0,1,1
2218101000000,59,2218101000000,world,-0.0276248896364,-0.0502984594336,2.44417407052,0.272711280959,-0.166031631198,-0.0109487817906,0.744301015618,-0.528472372481,-0.00346985034845,0.0,0.0,0.0,-0.610754390858,-0.123669746433,0.0,0.0,0.0,0.0,0.0,0.0,1,1
2218111000000,60,2218111000000,world,-0.0248604975725,-0.051985277365,2.44406440816,0.280173552182,-0.171339755167,-0.01098379592,0.748153228846,-0.53315242148,-0.0035329755209,0.0,0.0,0.0,-0.611355896496,-0.121985436955,0.0,0.0,0.0,0.0,0.0,0.0,1,1
2218122000000,61,2218121000000,world,-0.0220212901857,-0.0537254105385,2.4439543925,0.287674345536,-0.176694679627,-0.011019441301,0.752005442073,-0.537832470479,-0.00359610069334,0.0,0.0,0.0,-0.611949691271,-0.120372196021,0.0,0.0,0.0,0.0,0.0,0.0,1,1
2218132000000,62,2218131000000,world,-0.0191068822546,-0.0555193269591,2.44384401723,0.295213661023,-0.182096404577,-0.0110557179338,0.755857655301,-0.542512519478,-0.00365922586579,0.0,0.0,0.0,-0.612535428744,-0.11875984533,0.0,0.0,0.0,0.0,0.0,0.0,1,1
2218141000000,63,2218141000000,world,-0.0161168885581,-0.0573674946317,2.44373327604,0.302791498642,-0.187544930017,-0.0110926258183,0.759709868528,-0.547192568477,-0.00372235103824,0.0,0.0,0.0,-0.613112830332,-0.117120081396,0.0,0.0,0.0,0.0,0.0,0.0,1,1
2218152000000,64,2218152000000,world,-0.012740134171,-0.0594636978314,2.44361103055,0.311171613086,-0.193592362566,-0.0111339535871,0.763947303078,-0.552340622376,-0.00379178872794,0.0,0.0,0.0,-0.613709422728,-0.112795713087,0.0,0.0,0.0,0.0,0.0,0.0,1,1
2218161000000,65,2218161000000,world,-0.0099086029831,-0.0612284557523,2.44351067064,0.318062740277,-0.198582382366,-0.0111683353426,0.767414294983,-0.556552666475,-0.00384860138314,0.0,0.0,0.0,-0.614255574343,-0.117081369347,0.0,0.0,0.0,0.0,0.0,0.0,1,1
2218171000000,66,2218171000000,world,-0.00668954066203,-0.0632421852101,2.4433987938,0.325756144293,-0.204171309276,-0.0112071369823,0.771266508211,-0.561232715474,-0.00391172655559,0.0,0.0,0.0,-0.614799676924,-0.112950942735,0.0,0.0,0.0,0.0,0.0,0.0,1,1
2218181000000,67,2218181000000,world,-0.00339335169013,-0.0653120379394,2.44328652579,0.333488070442,-0.209807036676,-0.0112465698737,0.775118721438,-0.565912764472,-0.00397485172804,0.0,0.0,0.0,-0.615338072249,-0.110315003891,0.0,0.0,0.0,0.0,0.0,0.0,1,1
2218191000000,68,2218191000000,world,-1.96508460853e-05,-0.0674384819452,2.4431738603,0.341258518722,-0.215489564565,-0.0112866340168,0.778970934666,-0.570592813471,-0.00403797690049,0.0,0.0,0.0,-0.615868847039,-0.108234980925,0.0,0.0,0.0,0.0,0.0,0.0,1,1
2218202000000,69,2218201000000,world,0.00343194709142,-0.0696219852324,2.44306079101,0.349067489135,-0.221218892945,-0.0113273294117,0.782823147893,-0.57527286247,-0.00410110207294,0.0,0.0,0.0,-0.616390963724,-0.10632915899,0.0,0.0,0.0,0.0,0.0,0.0,1,1
2218211000000,70,2218211000000,world,0.00696182734372,-0.0718630158058,2.44294731161,0.35691498168,-0.226995021815,-0.0113686560583,0.786675361121,-0.579952911469,-0.00416422724539,0.0,0.0,0.0,-0.616903825542,-0.104450761314,0.0,0.0,0.0,0.0,0.0,0.0,1,1
2218222000000,71,2218221000000,world,0.0105703751321,-0.0741620416703,2.44283341578,0.364800996357,-0.232817951175,-0.0114106139566,0.790527574348,-0.584632960468,-0.00422735241784,0.0,0.0,0.0,-0.617407058811,-0.102548707543,0.0,0.0,0.0,0.0,0.0,0.0,1,1
2218233000000,72,2218231000000,world,0.014257975678,-0.0765195308309,2.44271909722,0.372725533167,-0.238687681024,-0.0114532031066,0.794379787576,-0.589313009467,-0.00429047759029,0.0,0.0,0.0,-0.617900403806,-0.100608853283,0.0,0.0,0.0,0.0,0.0,0.0,1,1
2218242000000,73,2218242000000,world,0.0184061019749,-0.0791808525783,2.44259285101,0.38148701672,-0.245198438425,-0.0115007802674,0.798617222126,-0.594461063366,-0.00435991527999,0.0,0.0,0.0,-0.618407032696,-0.0963615984642,0.0,0.0,0.0,0.0,0.0,0.0,1,1
2218251000000,74,2218251000000,world,0.0218718759273,-0.0814117710598,2.44248916665,0.388690173183,-0.250567542194,-0.0115402751619,0.802084214031,-0.598673107465,-0.00441672793519,0.0,0.0,0.0,-0.618868344564,-0.0994376734717,0.0,0.0,0.0,0.0,0.0,0.0,1,1
2218261000000,75,2218261000000,world,0.0257989460734,-0.0839474581379,2.44237354201,0.39673027639,-0.256577673513,-0.0115847580671,0.805936427258,-0.603353156463,-0.00447985310764,0.0,0.0,0.0,-0.619325090122,-0.0953933925257,0.0,0.0,0.0,0.0,0.0,0.0,1,1
2218272000000,76,2218271000000,world,0.0298066098622,-0.0865434805317,2.44225746938,0.404808901728,-0.262634605323,-0.011629872224,0.809788640486,-0.608033205462,-0.00454297828009,0.0,0.0,0.0,-0.61977420643,-0.0926083270354,0.0,0.0,0.0,0.0,0.0,0.0,1,1
2218282000000,77,2218281000000,world,0.033895252515,-0.089200306246,2.44214094246,0.412926049199,-0.268738337622,-0.0116756176327,0.813640853713,-0.612713254461,-0.00460610345254,0.0,0.0,0.0,-0.620214097767,-0.090293297213,0.0,0.0,0.0,0.0,0.0,0.0,1,1
2218291000000,78,2218291000000,world,0.0380652592533,-0.0919184032858,2.44202395493,0.421081718803,-0.274888870412,-0.0117219942931,0.817493066941,-0.61739330346,-0.00466922862499,0.0,0.0,0.0,-0.620643903132,-0.0881271850969,0.0,0.0,0.0,0.0,0.0,0.0,1,1
2218302000000,79,2218302000000,world,0.0427467019456,-0.0949796369743,2.4418947291,0.430097448429,-0.281708511047,-0.0117737377153,0.821730501491,-0.622541357359,-0.00473866631469,0.0,0.0,0.0,-0.621083255372,-0.0840047052662,0.0,0.0,0.0,0.0,0.0,0.0,1,1
2218312000000,80,2218312000000,world,0.0470888190213,-0.0978279202038,2.44177675378,0.438327911628,-0.287952112649,-0.0118214072689,0.822531273522,-0.624615298158,-0.00478542380282,0.0,0.0,0.0,-0.621501095718,-0.0837863872964,0.0,0.0,0.0,0.0,0.0,0.0,1,1
2218321000000,81,2218321000000,world,0.0510670368594,-0.100444763839,2.44167016704,0.445715398711,-0.293566217685,-0.0118645660173,0.819132522733,-0.622963598808,-0.0048054091683,0.0,0.0,0.0,-0.621883537911,-0.0843867705984,0.0,0.0,0.0,0.0,0.0,0.0,1,1
2218331000000,82,2218331000000,world,0.0555650845328,-0.103411543609,2.44155128074,0.453887841989,-0.299786677566,-0.0119127311388,0.815356132969,-0.621128377308,-0.00482761512995,0.0,0.0,0.0,-0.622262181804,-0.0800577746229,0.0,0.0,0.0,0.0,0.0,0.0,1,1
2218342000000,83,2218341000000,world,0.0601446678195,-0.106440436217,2.44143191167,0.46202252137,-0.305988785231,-0.0119611183199,0.811579743204,-0.619293155808,-0.00484982109159,0.0,0.0,0.0,-0.622633245681,-0.0771352750383,0.0,0.0,0.0,0.0,0.0,0.0,1,1
2218352000000,84,2218351000000,world,0.0648054090806,-0.10953125814,2.44131205763,0.470119436853,-0.312172540682,-0.0120097275606,0.807803353439,-0.617457934308,-0.00487202705324,0.0,0.0,0.0,-0.622994818092,-0.0747248785223,0.0,0.0,0.0,0.0,0.0,0.0,1,1
2218362000000,85,2218362000000,world,0.0700255112159,-0.113002471581,2.44117965538,0.478982426583,-0.318953474869,-0.0120634542042,0.803649324698,-0.615439190657,-0.00489645361105,0.0,0.0,0.0,-0.623362636966,-0.0708005187679,0.0,0.0,0.0,0.0,0.0,0.0,1,1
2218371000000,86,2218371000000,world,0.0743688549697,-0.115897955844,2.44107088571,0.486199976127,-0.324484994938,-0.0121076122209,0.80025057391,-0.613787491307,-0.00491643897654,0.0,0.0,0.0,-0.623694399408,-0.0722627528832,0.0,0.0,0.0,0.0,0.0,0.0,1,1
2218382000000,87,2218381000000,world,0.0792708043198,-0.119173464581,2.4409495634,0.494183599917,-0.330613693744,-0.0121568876405,0.796474184145,-0.611952269807,-0.00493864493818,0.0,0.0,0.0,-0.624019076142,-0.0685990499025,0.0,0.0,0.0,0.0,0.0,0.0,1,1
2218392000000,88,2218391000000,world,0.0842524010884,-0.122510168545,2.44082774722,0.50212945981,-0.336724040334,-0.0122063851197,0.79269779438,-0.610117048307,-0.00496085089983,0.0,0.0,0.0,-0.624334409192,-0.0658328299714,0.0,0.0,0.0,0.0,0.0,0.0,1,1
2218402000000,89,2218401000000,world,0.0893132676363,-0.125907884213,2.44070543495,0.510037555805,-0.34281603471,-0.0122561046585,0.788921404616,-0.608281826807,-0.00498305686148,0.0,0.0,0.0,-0.62463924049,-0.0633995447394,0.0,0.0,0.0,0.0,0.0,0.0,1,1
2218411000000,90,2218411000000,world,0.0944530263248,-0.129366428065,2.44058262438,0.517907887902,-0.34888967687,-0.0123060462569,0.785145014851,-0.606446605307,-0.00500526282313,0.0,0.0,0.0,-0.624932960223,-0.0610717457163,0.0,0.0,0.0,0.0,0.0,0.0,1,1
2218422000000,91,2218421000000,world,0.0996712995147,-0.132885616577,2.44045931329,0.525740456102,-0.354944966816,-0.0123562099149,0.781368625086,-0.604611383806,-0.00502746878477,0.0,0.0,0.0,-0.625215231006,-0.0587629511578,0.0,0.0,0.0,0.0,0.0,0.0,1,1
2218431000000,92,2218431000000,world,0.104967709567,-0.136465266227,2.44033549945,0.533535260404,-0.360981904546,-0.0124065956326,0.777592235321,-0.602776162306,-0.00504967474642,0.0,0.0,0.0,-0.625485849954,-0.0564433703154,0.0,0.0,0.0,0.0,0.0,0.0,1,1
2218440000000,93,2218441000000,world,0.110341878843,-0.140105193494,2.44021118064,0.541292300808,-0.367000490062,-0.0124572034098,0.773815845557,-0.600940940806,-0.00507188070807,0.0,0.0,0.0,-0.62574467971,-0.0541046607486,0.0,0.0,0.0,0.0,0.0,0.0,1,1
2218452000000,94,2218451000000,world,0.115793429704,-0.143805214854,2.44008635464,0.549011577315,-0.373000723363,-0.0125080332467,0.770039455792,-0.599105719306,-0.00509408666972,0.0,0.0,0.0,-0.62599161395,-0.0517457543612,0.0,0.0,0.0,0.0,0.0,0.0,1,1
2218461000000,95,2218461000000,world,0.12132198451,-0.147565146787,2.43996101923,0.556693089924,-0.378982604448,-0.0125590851432,0.766263066027,-0.597270497806,-0.00511629263136,0.0,0.0,0.0,-0.626226560117,-0.0493674939013,0.0,0.0,0.0,0.0,0.0,0.0,1,1
2218472000000,96,2218472000000,world,0.127491883642,-0.15177004959,2.43982255927,0.565099136492,-0.385541476834,-0.0126154987083,0.762109037286,-0.595251754156,-0.00514071918917,0.0,0.0,0.0,-0.626459634413,-0.0458723193784,0.0,0.0,0.0,0.0,0.0,0.0,1,1
2218481000000,97,2218481000000,world,0.132608595403,-0.155264008279,2.43970881131,0.571942823449,-0.390891309974,-0.0126618551151,0.758710286498,-0.593600054806,-0.00516070455466,0.0,0.0,0.0,-0.626665241084,-0.0457813452927,0.0,0.0,0.0,0.0,0.0,0.0,1,1
2218492000000,98,2218491000000,world,0.138365896212,-0.159202570795,2.43958193435,0.579511044365,-0.396818134415,-0.0127135731905,0.754933896733,-0.591764833305,-0.0051829105163,0.0,0.0,0.0,-0.626861148423,-0.0424814065769,0.0,0.0,0.0,0.0,0.0,0.0,1,1
2218501000000,99,2218501000000,world,0.14419869041,-0.163200309793,2.4394545391,0.587041501384,-0.40272660664,-0.0127655133254,0.751157506968,-0.589929611805,-0.00520511647795,0.0,0.0,0.0,-0.627045990372,-0.0397248981607,0.0,0.0,0.0,0.0,0.0,0.0,1,1
2218512000000,100,2218511000000,world,0.15010660036,-0.167257041753,2.43932662335,0.594534194505,-0.408616726651,-0.01281767552,0.747381117204,-0.588094390305,-0.0052273224396,0.0,0.0,0.0,-0.627219034924,-0.0371669042717,0.0,0.0,0.0,0.0,0.0,0.0,1,1
2218521000000,101,2218521000000,world,0.156089248421,-0.171372583152,2.43919818485,0.601989123728,-0.414488494446,-0.0128700597742,0.743604727439,-0.586259168805,-0.00524952840125,0.0,0.0,0.0,-0.627379822212,-0.034662180924,0.0,0.0,0.0,0.0,0.0,0.0,1,1
2218531000000,102,2218531000000,world,0.162146256955,-0.175546750468,2.43906922141,0.609406289054,-0.420341910027,-0.012922666088,0.739828337674,-0.584423947305,-0.00527173436289,0.0,0.0,0.0,-0.627527954796,-0.0321443488992,0.0,0.0,0.0,0.0,0.0,0.0,1,1
2218542000000,103,2218541000000,world,0.135292309584,-0.157690139213,2.43960551715,0.599840194549,-0.414571363422,-0.0126631521095,0.725634927218,-0.574077807017,-0.00509022243327,0.0,0.0,0.0,-0.62927927282,-0.191203976796,0.0,0.0,0.0,0.0,0.0,0.0,2,1
2218552000000,104,2218552000000,world,0.141934187141,-0.162284966691,2.43946591697,0.607749770699,-0.420834611742,-0.0127184762196,0.712469827307,-0.56469461485,-0.00496870667572,0.0,0.0,0.0,-0.630346552533,-0.192627416885,0.0,0.0,0.0,0.0,0.0,0.0,2,1
2218562000000,105,2218562000000,world,0.148047108869,-0.166521405369,2.43933848561,0.614814627609,-0.426438907017,-0.012767610942,0.700501554661,-0.556164440153,-0.00485823780523,0.0,0.0,0.0,-0.631051561606,-0.166814615799,0.0,0.0,0.0,0.0,0.0,0.0,2,1
2218572000000,106,2218571000000,world,0.153608665415,-0.17038177655,2.4392233817,0.621070670096,-0.431409839771,-0.0128108876834,0.68973010928,-0.548487282925,-0.00475881582178,0.0,0.0,0.0,-0.631556006146,-0.139456701139,0.0,0.0,0.0,0.0,0.0,0.0,2,1
2218582000000,107,2218581000000,world,0.159853659151,-0.174723157143,2.43909503672,0.627908129826,-0.436852061726,-0.0128579234972,0.677761836634,-0.539957108227,-0.00464834695128,0.0,0.0,0.0,-0.63197451555,-0.111579290982,0.0,0.0,0.0,0.0,0.0,0.0,2,1
2218592000000,108,2218591000000,world,0.16616642907,-0.179118533446,2.43896622691,0.634625906829,-0.442208981935,-0.0129038546224,0.665793563988,-0.53142693353,-0.00453787808078,0.0,0.0,0.0,-0.632347399024,-0.0930779929079,0.0,0.0,0.0,0.0,0.0,0.0,2,1
2218602000000,109,2218602000000,world,0.173187329059,-0.184014794349,2.43882401242,0.641877227983,-0.448003070647,-0.0129531029446,0.652628464077,-0.522043741363,-0.00441636232324,0.0,0.0,0.0,-0.632710771605,-0.07957286748,0.0,0.0,0.0,0.0,0.0,0.0,2,1
2218610000000,110,2218611000000,world,0.178990510149,-0.188067861115,2.43870725697,0.647702412656,-0.452666917112,-0.0129924028066,0.641857018695,-0.514366584135,-0.00431694033979,0.0,0.0,0.0,-0.633034839533,-0.0757939813083,0.0,0.0,0.0,0.0,0.0,0.0,2,1
2218621000000,111,2218621000000,world,0.185499427656,-0.192620106445,2.43857711894,0.65406114148,-0.45776793208,-0.0130350198656,0.629888746049,-0.505836409438,-0.00420647146929,0.0,0.0,0.0,-0.633352566265,-0.0696696638664,0.0,0.0,0.0,0.0,0.0,0.0,2,1
2218632000000,112,2218631000000,world,0.192071334036,-0.197222935417,2.43844656026,0.660300187577,-0.462783645301,-0.013076532236,0.617920473403,-0.49730623474,-0.0040960025988,0.0,0.0,0.0,-0.633664482254,-0.0660264307878,0.0,0.0,0.0,0.0,0.0,0.0,2,1
2218641000000,113,2218641000000,world,0.198705032465,-0.201875495012,2.43831559197,0.666419550948,-0.467714056775,-0.0131169399176,0.605952200757,-0.488776060043,-0.0039855337283,0.0,0.0,0.0,-0.633970851517,-0.0636501417304,0.0,0.0,0.0,0.0,0.0,0.0,2,1
2218651000000,114,2218651000000,world,0.205399326113,-0.206576932213,2.43818422514,0.672419231592,-0.472559166501,-0.0131562429105,0.593983928111,-0.480245885345,-0.0038750648578,0.0,0.0,0.0,-0.634271802637,-0.0619201827889,0.0,0.0,0.0,0.0,0.0,0.0,2,1
2218662000000,115,2218662000000,world,0.212831608192,-0.211803948693,2.43803927448,0.678880646752,-0.477790263683,-0.0131982002873,0.5808188282,-0.470862693178,-0.00375354910025,0.0,0.0,0.0,-0.634581759846,-0.0591380195045,0.0,0.0,0.0,0.0,0.0,0.0,2,1
2218672000000,116,2218671000000,world,0.218964911761,-0.216123027364,2.43792034,0.684059544701,-0.481993480714,-0.0132315348303,0.570047382819,-0.46318553595,-0.00365412711681,0.0,0.0,0.0,-0.634864830824,-0.0610213406206,0.0,0.0,0.0,0.0,0.0,0.0,2,1
2218682000000,117,2218681000000,world,0.225833810106,-0.220965979278,2.43778784378,0.689700177166,-0.4865826852,-0.0132675237571,0.558079110173,-0.454655361253,-0.00354365824631,0.0,0.0,0.0,-0.635146156187,-0.0586432066013,0.0,0.0,0.0,0.0,0.0,0.0,2,1
2218692000000,118,2218691000000,world,0.232758516362,-0.225854396729,2.4376549932,0.695221126905,-0.491086587939,-0.0133024079952,0.546110837527,-0.446125186555,-0.00343318937581,0.0,0.0,0.0,-0.63542392869,-0.0570988536243,0.0,0.0,0.0,0.0,0.0,0.0,2,1
2218701000000,119,2218701000000,world,0.239737833701,-0.230787426698,2.43752179931,0.700622393917,-0.495505188932,-0.0133361875446,0.534142564881,-0.437595011858,-0.00332272050531,0.0,0.0,0.0,-0.635697230634,-0.0558796211919,0.0,0.0,0.0,0.0,0.0,0.0,2,1
2218711000000,120,2218711000000,world,0.246770565298,-0.235764216168,2.43738827314,0.705903978202,-0.499838488177,-0.0133688624053,0.522174292235,-0.42906483716,-0.00321225163482,0.0,0.0,0.0,-0.635965587027,-0.0547754499344,0.0,0.0,0.0,0.0,0.0,0.0,2,1
2218721000000,121,2218721000000,world,0.253855514323,-0.240783912122,2.43725442574,0.711065879762,-0.504086485675,-0.0134004325773,0.510206019589,-0.420534662463,-0.00310178276432,0.0,0.0,0.0,-0.636228742184,-0.0537032406937,0.0,0.0,0.0,0.0,0.0,0.0,2,1
2218731000000,122,2218731000000,world,0.26099148395,-0.245845661543,2.43712026817,0.716108098594,-0.508249181426,-0.0134308980606,0.498237746942,-0.412004487766,-0.00299131389382,0.0,0.0,0.0,-0.636486548033,-0.0526322051934,0.0,0.0,0.0,0.0,0.0,0.0,2,1
2218741000000,123,2218741000000,world,0.268177277352,-0.250948611412,2.43698581146,0.7210306347,-0.51232657543,-0.0134602588552,0.486269474296,-0.403474313068,-0.00288084502333,0.0,0.0,0.0,-0.636738905486,-0.0515518479192,0.0,0.0,0.0,0.0,0.0,0.0,2,1
2218753000000,124,2218751000000,world,0.275411697702,-0.256091908712,2.43685106667,0.72583348808,-0.516318667687,-0.0134885149611,0.47430120165,-0.394944138371,-0.00277037615283,0.0,0.0,0.0,-0.636985729538,-0.0504583291731,0.0,0.0,0.0,0.0,0.0,0.0,2,1
2218762000000,125,2218761000000,world,0.282693548172,-0.261274700426,2.43671604484,0.730516658733,-0.520225458197,-0.0135156663782,0.462332929004,-0.386413963673,-0.00265990728233,0.0,0.0,0.0,-0.63722693844,-0.0493500548131,0.0,0.0,0.0,0.0,0.0,0.0,2,1
2218772000000,126,2218771000000,world,0.290021631934,-0.266496133537,2.43658075703,0.73508014666,-0.524046946961,-0.0135417131067,0.450364656358,-0.377883788976,-0.00254943841183,0.0,0.0,0.0,-0.637462449812,-0.0482261645913,0.0,0.0,0.0,0.0,0.0,0.0,2,1
2218782000000,127,2218781000000,world,0.297394752162,-0.271755355026,2.43644521426,0.739523951861,-0.527783133977,-0.0135666551465,0.438396383712,-0.369353614278,-0.00243896954134,0.0,0.0,0.0,-0.637692178699,-0.0470859709975,0.0,0.0,0.0,0.0,0.0,0.0,2,1
2218791000000,128,2218791000000,world,0.304811712029,-0.277051511877,2.43630942761,0.743848074334,-0.531434019246,-0.0135904924975,0.426428111066,-0.360823439581,-0.00232850067084,0.0,0.0,0.0,-0.637916036602,-0.0459287758064,0.0,0.0,0.0,0.0,0.0,0.0,2,1
2218800000000,129,2218801000000,world,0.312271314707,-0.282383751072,2.4361734081,0.748052514082,-0.534999602769,-0.0136132251599,0.41445983842,-0.352293264883,-0.00221803180034,0.0,0.0,0.0,-0.63813393099,-0.0447538267151,0.0,0.0,0.0,0.0,0.0,0.0,2,1
2218811000000,130,2218811000000,world,0.319772363368,-0.287751219593,2.43603716678,0.752137271103,-0.538479884544,-0.0136348531335,0.402491565774,-0.343763090186,-0.00210756292984,0.0,0.0,0.0,-0.638345765053,-0.0435603196555,0.0,0.0,0.0,0.0,0.0,0.0,2,1
2218822000000,131,2218821000000,world,0.327313661186,-0.293153064424,2.43590071472,0.756102345397,-0.541874864572,-0.0136553764185,0.390523293128,-0.335232915488,-0.00199709405935,0.0,0.0,0.0,-0.638551437573,-0.042347411767,0.0,0.0,0.0,0.0,0.0,0.0,2,1
2218832000000,132,2218831000000,world,0.334894011334,-0.298588432546,2.43576406294,0.759947736965,-0.545184542854,-0.0136747950147,0.378555020482,-0.326702740791,-0.00188662518885,0.0,0.0,0.0,-0.63875084285,-0.0411142336237,0.0,0.0,0.0,0.0,0.0,0.0,2,1
2218841000000,133,2218841000000,world,0.342512216983,-0.304056470942,2.4356272225,0.763673445807,-0.548408919388,-0.0136931089223,0.366586747836,-0.318172566093,-0.00177615631835,0.0,0.0,0.0,-0.638943870663,-0.0398598980574,0.0,0.0,0.0,0.0,0.0,0.0,2,1
2218851000000,134,2218851000000,world,0.350167081307,-0.309556326594,2.43549020444,0.767279471922,-0.551547994176,-0.0137103181411,0.35461847519,-0.309642391396,-0.00166568744786,0.0,0.0,0.0,-0.63913040623,-0.0385835057731,0.0,0.0,0.0,0.0,0.0,0.0,2,1
2218861000000,135,2218861000000,world,0.357857407479,-0.315087146486,2.43535301982,0.770765815311,-0.554601767216,-0.0137264226712,0.342650202543,-0.301112216698,-0.00155521857736,0.0,0.0,0.0,-0.639310330187,-0.0372841486175,0.0,0.0,0.0,0.0,0.0,0.0,2,1
2218872000000,136,2218872000000,world,0.366356296289,-0.321205793987,2.43520193753,0.774462559489,-0.557862394043,-0.0137428617389,0.329485102633,-0.291729024531,-0.00143370281981,0.0,0.0,0.0,-0.639491650014,-0.0351256948737,0.0,0.0,0.0,0.0,0.0,0.0,2,1
2218882000000,137,2218881000000,world,0.373339658056,-0.326238266917,2.43507819505,0.777379453909,-0.560453408056,-0.0137553176654,0.318713657251,-0.284051867304,-0.00133428083636,0.0,0.0,0.0,-0.639653908451,-0.0355915627247,0.0,0.0,0.0,0.0,0.0,0.0,2,1
2218891000000,138,2218891000000,world,0.381129188807,-0.331856861421,2.434940577,0.780506749118,-0.563251275856,-0.0137681081294,0.306745384605,-0.275521692606,-0.00122381196587,0.0,0.0,0.0,-0.639811202262,-0.0335251624838,0.0,0.0,0.0,0.0,0.0,0.0,2,1
2218902000000,139,2218901000000,world,0.388949394096,-0.337503008095,2.43480283657,0.783514361601,-0.565963841908,-0.0137797939047,0.294777111959,-0.266991517909,-0.00111334309537,0.0,0.0,0.0,-0.639962377029,-0.0318800578765,0.0,0.0,0.0,0.0,0.0,0.0,2,1
2218911000000,140,2218911000000,world,0.396799077097,-0.34317585392,2.4346649848,0.786402291357,-0.568591106214,-0.0137903749913,0.282808839313,-0.258461343211,-0.00100287422487,0.0,0.0,0.0,-0.640106781814,-0.0303805074905,0.0,0.0,0.0,0.0,0.0,0.0,2,1
2218921000000,141,2218921000000,world,0.404677040981,-0.34887454588,2.43452703275,0.789170538387,-0.571133068772,-0.0137998513892,0.270840566667,-0.249931168514,-0.000892405354375,0.0,0.0,0.0,-0.640244015022,-0.028913574567,0.0,0.0,0.0,0.0,0.0,0.0,2,1
2218931000000,142,2218931000000,world,0.412582088922,-0.354598230957,2.43438899146,0.791819102691,-0.573589729584,-0.0138082230984,0.258872294021,-0.241400993816,-0.000781936483878,0.0,0.0,0.0,-0.640373797305,-0.0274350155873,0.0,0.0,0.0,0.0,0.0,0.0,2,1
2218941000000,143,2218941000000,world,0.420513024092,-0.360346056133,2.43425087197,0.794347984268,-0.575961088649,-0.0138154901189,0.246904021375,-0.232870819119,-0.000671467613381,0.0,0.0,0.0,-0.640495907999,-0.0259285770979,0.0,0.0,0.0,0.0,0.0,0.0,2,1
2218951000000,144,2218951000000,world,0.428468649665,-0.366117168391,2.43411268534,0.796757183118,-0.578247145966,-0.0138216524506,0.234935748729,-0.224340644421,-0.000560998742883,0.0,0.0,0.0,-0.640610153316,-0.0243888203198,0.0,0.0,0.0,0.0,0.0,0.0,2,1
2218962000000,145,2218961000000,world,0.436447768812,-0.371910714713,2.43397444261,0.799046699242,-0.580447901537,-0.0138267100937,0.222967476083,-0.215810469724,-0.000450529872386,0.0,0.0,0.0,-0.64071635043,-0.022814121489,0.0,0.0,0.0,0.0,0.0,0.0,2,1
2218969000000,146,2218971000000,world,0.444449184707,-0.377725842082,2.43383615482,0.80121653264,-0.582563355361,-0.0138306630481,0.210999203437,-0.207280295026,-0.000340061001889,0.0,0.0,0.0,-0.640814319482,-0.0212039659925,0.0,0.0,0.0,0.0,0.0,0.0,2,1
2218981000000,147,2218981000000,world,0.452471700523,-0.383561697481,2.43369783303,0.803266683311,-0.584593507438,-0.0138335113138,0.199030930791,-0.198750120329,-0.000229592131392,0.0,0.0,0.0,-0.640903879576,-0.0195579923728,0.0,0.0,0.0,0.0,0.0,0.0,2,1
2218992000000,148,2218992000000,world,0.461319409914,-0.390004061217,2.43354565296,0.8053836155,-0.586728151204,-0.0138353684905,0.18586583088,-0.189366928162,-0.000108076373845,0.0,0.0,0.0,-0.640988220412,-0.017446344893,0.0,0.0,0.0,0.0,0.0,0.0,2,1
2219001000000,149,2219001000000,world,0.468575244605,-0.395292180297,2.43342113161,0.807007936474,-0.58839790635,-0.013835893779,0.175094385498,-0.181689770934,-8.65439039716e-06,0.0,0.0,0.0,-0.641058719736,-0.0165564306781,0.0,0.0,0.0,0.0,0.0,0.0,2,1
2219011000000,150,2219011000000,world,0.476653879218,-0.40118510168,2.43328277408,0.808699038965,-0.590172153186,-0.0138354279785,0.163126112852,-0.173159596237,0.0001018144801,0.0,0.0,0.0,-0.64112108874,-0.0145151158015,0.0,0.0,0.0,0.0,0.0,0.0,2,1
2219021000000,151,2219021000000,world,0.484748826442,-0.407095339022,2.43314442673,0.810270458731,-0.591861098275,-0.0138338574894,0.151157840206,-0.164629421539,0.000212283350597,0.0,0.0,0.0,-0.64117470804,-0.0126194879047,0.0,0.0,0.0,0.0,0.0,0.0,2,1
2219033000000,152,2219032000000,world,0.493670681041,-0.413615581955,2.4329922696,0.811860786924,-0.593620414355,-0.0138308540358,0.137992740296,-0.155246229372,0.000333799108144,0.0,0.0,0.0,-0.641220661169,-0.0104873011024,0.0,0.0,0.0,0.0,0.0,0.0,2,1
2219041000000,153,2219041000000,world,0.500982871415,-0.418964349515,2.43286780677,0.813054250082,-0.594983083212,-0.0138274024449,0.127221294914,-0.147569072144,0.000433221091592,0.0,0.0,0.0,-0.641254891729,-0.00904704614263,0.0,0.0,0.0,0.0,0.0,0.0,2,1
2219052000000,154,2219051000000,world,0.509119575509,-0.424921416631,2.43272955625,0.814266621668,-0.59641612306,-0.0138225178897,0.115253022268,-0.139038897447,0.000543689962089,0.0,0.0,0.0,-0.641279753753,-0.00700972544392,0.0,0.0,0.0,0.0,0.0,0.0,2,1
2219061000000,155,2219061000000,world,0.517267804906,-0.430892387637,2.4325913601,0.815359310527,-0.597763861161,-0.0138165286457,0.103284749622,-0.130508722749,0.000654158832586,0.0,0.0,0.0,-0.641294815051,-0.00501099253274,0.0,0.0,0.0,0.0,0.0,0.0,2,1
2219071000000,156,2219071000000,world,0.525426362778,-0.436876409515,2.43245322936,0.81633231666,-0.599026297515,-0.013809434713,0.0913164769758,-0.121978548052,0.000764627703084,0.0,0.0,0.0,-0.64129974477,-0.00299846813826,0.0,0.0,0.0,0.0,0.0,0.0,2,1
2219082000000,157,2219082000000,world,0.534411277412,-0.443472889262,2.43230137429,0.817264389858,-0.600316453986,-0.0138003554716,0.0781513770651,-0.112595355885,0.00088614346063,0.0,0.0,0.0,-0.641293166212,-0.000901183402999,0.0,0.0,0.0,0.0,0.0,0.0,2,1
2219091000000,158,2219091000000,world,0.541769676637,-0.448880193818,2.43217720832,0.817919280747,-0.601295264982,-0.0137919327816,0.0673799316837,-0.104918198657,0.000985565444078,0.0,0.0,0.0,-0.641277551998,0.00128432101762,0.0,0.0,0.0,0.0,0.0,0.0,2,1
2219101000000,159,2219101000000,world,0.549952038969,-0.454898250209,2.43203934011,0.818533238701,-0.602301796095,-0.0137815247828,0.0554116590376,-0.0963880239593,0.00109603431458,0.0,0.0,0.0,-0.641250734082,0.0033239520724,0.0,0.0,0.0,0.0,0.0,0.0,2,1
2219111000000,160,2219111000000,world,0.558139942468,-0.460925945401,2.4319015815,0.819027513928,-0.603223025461,-0.0137700120953,0.0434433863915,-0.0878578492619,0.00120650318507,0.0,0.0,0.0,-0.641212596287,0.0054757555491,0.0,0.0,0.0,0.0,0.0,0.0,2,1
2219121000000,161,2219121000000,world,0.566332190306,-0.466962426379,2.43176394355,0.819402106428,-0.60405895308,-0.0137573947191,0.0314751137454,-0.0793276745644,0.00131697205557,0.0,0.0,0.0,-0.641162951777,0.00770232878009,0.0,0.0,0.0,0.0,0.0,0.0,2,1
2219131000000,162,2219131000000,world,0.574527585774,-0.473006840185,2.43162643729,0.819657375161,-0.604809764125,-0.0137436762758,0.020224757284,-0.071167844336,0.00142019759262,0.0,0.0,0.0,-0.641101575546,0.00998878746218,0.0,0.0,0.0,0.0,0.0,0.0,2,1
2219141000000,163,2219141000000,world,0.582725090945,-0.479058415773,2.43148907217,0.819835677179,-0.605497308918,-0.0137292841222,0.0154356464847,-0.0663411143289,0.00145823312859,0.0,0.0,0.0,-0.641028236225,0.0123283258593,0.0,0.0,0.0,0.0,0.0,0.0,2,1
2219151000000,164,2219151000000,world,0.59092413968,-0.485116625473,2.43135185288,0.81996608809,-0.606136586411,-0.0137145116132,0.0106465356854,-0.0615143843218,0.00149626866457,0.0,0.0,0.0,-0.640942742917,0.014713493784,0.0,0.0,0.0,0.0,0.0,0.0,2,1
2219162000000,165,2219161000000,world,0.59912425307,-0.49118098661,2.43121478321,0.820048607893,-0.606727596604,-0.0136993587489,0.00585742488612,-0.0566876543147,0.00153430420055,0.0,0.0,0.0,-0.640844931145,0.0171379240912,0.0,0.0,0.0,0.0,0.0,0.0,2,1
2219172000000,166,2219172000000,world,0.608145035892,-0.497858312703,2.43106418393,0.820084065447,-0.607321959085,-0.0136822512877,0.000589403006891,-0.0513782513069,0.00157614329013,0.0,0.0,0.0,-0.640728159443,0.0191845712864,0.0,0.0,0.0,0.0,0.0,0.0,2,1
2219181000000,167,2219181000000,world,0.615525758164,-0.503326232509,2.43094110797,0.820069974175,-0.607764815091,-0.0136679119542,-0.00372079671248,-0.0470341943005,0.00161037527251,0.0,0.0,0.0,-0.640608496758,0.0228881395123,0.0,0.0,0.0,0.0,0.0,0.0,2,1
2219191000000,168,2219191000000,world,0.623726192048,-0.509406151925,2.43080451,0.820008820654,-0.608211023384,-0.0136516180238,-0.00850990751178,-0.0422074642934,0.00164841080849,0.0,0.0,0.0,-0.64047443785,0.0248499605729,0.0,0.0,0.0,0.0,0.0,0.0,2,1
2219201000000,169,2219201000000,world,0.63192577494,-0.515490292086,2.43066807687,0.819899776025,-0.608608964376,-0.013634943738,-0.0132990183111,-0.0373807342863,0.00168644634446,0.0,0.0,0.0,-0.640326639233,0.0272048419585,0.0,0.0,0.0,0.0,0.0,0.0,2,1
2219211000000,170,2219211000000,world,0.640124027931,-0.521578170321,2.43053181239,0.819742840288,-0.608958638069,-0.0136178890969,-0.0180881291104,-0.0325540042792,0.00172448188044,0.0,0.0,0.0,-0.640165347981,0.0297315461889,0.0,0.0,0.0,0.0,0.0,0.0,2,1
2219222000000,171,2219222000000,world,0.649139998604,-0.528278577784,2.43038212079,0.819514896747,-0.6092875304,-0.0135986896812,-0.0233561509896,-0.0272446012713,0.00176632097002,0.0,0.0,0.0,-0.639980821922,0.0316408693806,0.0,0.0,0.0,0.0,0.0,0.0,2,1
2219232000000,172,2219231000000,world,0.656514628563,-0.533763210319,2.43025980458,0.819285295489,-0.609513183555,-0.0135826387486,-0.027666350709,-0.0229005442649,0.0018005529524,0.0,0.0,0.0,-0.6397974497,0.0361951260201,0.0,0.0,0.0,0.0,0.0,0.0,2,1
2219241000000,173,2219241000000,world,0.664706018382,-0.539859406737,2.43012406885,0.818984686428,-0.609718055347,-0.0135644430414,-0.0324554615083,-0.0180738142578,0.00183858848838,0.0,0.0,0.0,-0.639597990778,0.0380434552609,0.0,0.0,0.0,0.0,0.0,0.0,2,1
2219250000000,174,2219251000000,world,0.672894162655,-0.545957410535,2.42998851698,0.818636186259,-0.60987465984,-0.0135458669788,-0.0372445723076,-0.0132470842507,0.00187662402436,0.0,0.0,0.0,-0.639383515392,0.0404692661613,0.0,0.0,0.0,0.0,0.0,0.0,2,1
2219262000000,175,2219261000000,world,0.68107858247,-0.552056739042,2.42985315278,0.818239794982,-0.609982997032,-0.0135269105609,-0.0420336831069,-0.00842035424363,0.00191465956034,0.0,0.0,0.0,-0.639154464502,0.0431397221301,0.0,0.0,0.0,0.0,0.0,0.0,2,1
2219271000000,176,2219271000000,world,0.689258798917,-0.558156909585,2.42971798004,0.817795512597,-0.610043066925,-0.0135075737876,-0.0468227939062,-0.00359362423653,0.00195269509631,0.0,0.0,0.0,-0.638910961716,0.0459201396432,0.0,0.0,0.0,0.0,0.0,0.0,2,1
2219281000000,177,2219281000000,world,0.697434333085,-0.56425743949,2.42958300257,0.817303339104,-0.610054869517,-0.013487856659,-0.0516119047055,0.00123310577058,0.00199073063229,0.0,0.0,0.0,-0.638652969223,0.0487593191236,0.0,0.0,0.0,0.0,0.0,0.0,2,1
2219292000000,178,2219291000000,world,0.705604706062,-0.570357846084,2.42944822418,0.816763274503,-0.610018404809,-0.0134677591749,-0.0564010155048,0.00605983577768,0.00202876616827,0.0,0.0,0.0,-0.63838036571,0.0516400108359,0.0,0.0,0.0,0.0,0.0,0.0,2,1
2219302000000,179,2219301000000,world,0.713769438938,-0.576457646695,2.42931364866,0.816175318794,-0.609933672801,-0.0134472813356,-0.0611901263041,0.0108865657848,0.00206680170425,0.0,0.0,0.0,-0.638092985283,0.0545580481859,0.0,0.0,0.0,0.0,0.0,0.0,2,1
2219312000000,180,2219312000000,world,0.722743559204,-0.583166151386,2.42916585445,0.815473253284,-0.609784718861,-0.0134243164018,-0.0664581481833,0.0161959687926,0.00210864079383,0.0,0.0,0.0,-0.637774349935,0.0562458739131,0.0,0.0,0.0,0.0,0.0,0.0,2,1
2219321000000,181,2219321000000,world,0.730080068741,-0.588653499274,2.42904512146,0.814855734052,-0.609619406886,-0.0134051845908,-0.0707683479027,0.020540025799,0.00214287277621,0.0,0.0,0.0,-0.637464970453,0.0624984349549,0.0,0.0,0.0,0.0,0.0,0.0,2,1
2219332000000,182,2219331000000,world,0.738225007845,-0.594748585896,2.42891117739,0.814124105019,-0.609389872978,-0.0133835656853,-0.075557458702,0.0253667558061,0.00218090831218,0.0,0.0,0.0,-0.637136127401,0.0641335226149,0.0,0.0,0.0,0.0,0.0,0.0,2,1
2219342000000,183,2219341000000,world,0.746362391204,-0.600841135842,2.42877745142,0.813344584878,-0.60911207177,-0.0133615664245,-0.0803465695013,0.0301934858132,0.00221894384816,0.0,0.0,0.0,-0.636789636696,0.0667158318725,0.0,0.0,0.0,0.0,0.0,0.0,2,1
2219351000000,184,2219351000000,world,0.754491739906,-0.60693066644,2.42864394733,0.812517173629,-0.608786003261,-0.0133391868084,-0.0851356803005,0.0350202158203,0.00225697938414,0.0,0.0,0.0,-0.636426309133,0.0696906722037,0.0,0.0,0.0,0.0,0.0,0.0,2,1
2219361000000,185,2219361000000,world,0.762612575039,-0.613016695017,2.42851066895,0.811641871272,-0.608411667453,-0.0133164268369,-0.0899247910998,0.0398469458274,0.00229501492012,0.0,0.0,0.0,-0.636046453609,0.0728308884954,0.0,0.0,0.0,0.0,0.0,0.0,2,1
2219371000000,186,2219371000000,world,0.770724417694,-0.619098738898,2.42837762006,0.810718677807,-0.607989064345,-0.01329328651,-0.0947139018991,0.0446736758345,0.0023330504561,0.0,0.0,0.0,-0.635650125628,0.0760482423049,0.0,0.0,0.0,0.0,0.0,0.0,2,1
2219382000000,187,2219382000000,world,0.77963648672,-0.625783808776,2.42823153591,0.809647850766,-0.607468452194,-0.01326739284,-0.0999819237784,0.0499830788423,0.00237488954567,0.0,0.0,0.0,-0.635215319535,0.0775519477806,0.0,0.0,0.0,0.0,0.0,0.0,2,1
2219391000000,188,2219391000000,world,0.786919209922,-0.631248941886,2.42811222601,0.808728617553,-0.606999056228,-0.0132458647901,-0.104292123498,0.0543271358487,0.00240912152806,0.0,0.0,0.0,-0.634796724761,0.085286504394,0.0,0.0,0.0,0.0,0.0,0.0,2,1
2219401000000,189,2219401000000,world,0.795001201673,-0.637316135646,2.42797988846,0.807661750764,-0.606431651219,-0.0132215833972,-0.109081234297,0.0591538658558,0.00244715706403,0.0,0.0,0.0,-0.63435578369,0.0867373592606,0.0,0.0,0.0,0.0,0.0,0.0,2,1
2219412000000,190,2219412000000,world,0.803878775278,-0.643983197928,2.42783459994,0.806432883066,-0.605751756978,-0.0131944345545,-0.114349256176,0.0644632688636,0.00248899615361,0.0,0.0,0.0,-0.633870534801,0.0874822150389,0.0,0.0,0.0,0.0,0.0,0.0,2,1
2219421000000,191,2219421000000,world,0.811131981893,-0.649432294333,2.42771595129,0.805384343862,-0.605152039302,-0.0131718795452,-0.118659455896,0.06880732587,0.00252322813599,0.0,0.0,0.0,-0.633403404404,0.0956444848856,0.0,0.0,0.0,0.0,0.0,0.0,2,1
2219431000000,192,2219431000000,world,0.81917981254,-0.655480293915,2.42758435929,0.804173803749,-0.604439832393,-0.0131464570861,-0.123448566695,0.0736340558771,0.00256126367197,0.0,0.0,0.0,-0.632911973956,0.0969652873251,0.0,0.0,0.0,0.0,0.0,0.0,2,1
2219442000000,193,2219441000000,world,0.827215298331,-0.66152093009,2.42745302342,0.802915372528,-0.603679358185,-0.0131206542717,-0.128237677494,0.0784607858842,0.00259929920795,0.0,0.0,0.0,-0.632399424309,0.0997376083031,0.0,0.0,0.0,0.0,0.0,0.0,2,1
2219454000000,194,2219454000000,world,0.837642186729,-0.669361955071,2.42728267595,0.801207814734,-0.6026185821,-0.0130865419818,-0.134463521533,0.0847355348935,0.00264874540472,0.0,0.0,0.0,-0.631782660936,0.0973121405703,0.0,0.0,0.0,0.0,0.0,0.0,2,1
2219461000000,195,2219461000000,world,0.843247319698,-0.673578181533,2.42719113526,0.800254836762,-0.602013607867,-0.0130679075769,-0.137815899093,0.0881142458985,0.0026753702799,0.0,0.0,0.0,-0.631273715728,0.121362528504,0.0,0.0,0.0,0.0,0.0,0.0,2,1
2219471000000,196,2219471000000,world,0.851242897452,-0.679593831454,2.42706059059,0.798852732217,-0.601108331758,-0.0130409636964,-0.142605009892,0.0929409759056,0.00271340581588,0.0,0.0,0.0,-0.630724781662,0.115574670872,0.0,0.0,0.0,0.0,0.0,0.0,2,1
2219481000000,197,2219481000000,world,0.859224214705,-0.685600187277,2.42693031726,0.797402736564,-0.600154788349,-0.0130136394605,-0.147394120691,0.0977677059127,0.00275144135186,0.0,0.0,0.0,-0.630146396397,0.115625861944,0.0,0.0,0.0,0.0,0.0,0.0,2,1
2219491000000,198,2219491000000,world,0.867190792546,-0.69159676633,2.42680031907,0.795904849803,-0.59915297764,-0.0129859348693,-0.152183231491,0.10259443592,0.00278947688784,0.0,0.0,0.0,-0.629543700967,0.118082473944,0.0,0.0,0.0,0.0,0.0,0.0,2,1
2219503000000,199,2219503000000,world,0.876730555625,-0.698779076252,2.42664468979,0.794044169428,-0.597887091952,-0.0129521872908,-0.15793016445,0.108386511928,0.00283511953101,0.0,0.0,0.0,-0.628853314901,0.11657340912,0.0,0.0,0.0,0.0,0.0,0.0,2,1
2219511000000,200,2219511000000,world,0.883077814348,-0.703558663431,2.42654116334,0.792765402958,-0.597004554321,-0.0129293846209,-0.161761453089,0.112247895934,0.0028655479598,0.0,0.0,0.0,-0.628240878158,0.134841297514,0.0,0.0,0.0,0.0,0.0,0.0,2,1
2219522000000,201,2219521000000,world,0.890997300486,-0.709523016134,2.4264120134,0.791123842873,-0.595857941712,-0.0129005389636,-0.166550563889,0.117074625941,0.00290358349578,0.0,0.0,0.0,-0.627591613411,0.132347123459,0.0,0.0,0.0,0.0,0.0,0.0,2,1
2219532000000,202,2219531000000,world,0.898900131568,-0.715475661374,2.42628315383,0.78943439168,-0.594663061802,-0.0128713129509,-0.171339674688,0.121901355948,0.00294161903175,0.0,0.0,0.0,-0.626913815928,0.133953309976,0.0,0.0,0.0,0.0,0.0,0.0,2,1
2219541000000,203,2219541000000,world,0.906785828683,-0.721416116479,2.42615458841,0.787697049379,-0.593419914593,-0.0128417065829,-0.176128785487,0.126728085955,0.00297965456773,0.0,0.0,0.0,-0.626211494189,0.13720882897,0.0,0.0,0.0,0.0,0.0,0.0,2,1
2219552000000,204,2219552000000,world,0.8779683506,-0.699701385285,2.42661764361,0.769150359963,-0.579491930478,-0.0125417363658,-0.180474412667,0.131666442288,0.00300943660839,0.0,0.0,0.0,-0.620706006012,0.569103339656,0.0,0.0,0.0,0.0,0.0,0.0,3,1
2219562000000,205,2219561000000,world,0.884883386726,-0.704911449563,2.42650488943,0.767523456936,-0.578296730848,-0.0125147965651,-0.181059593394,0.133933475409,0.00297718577996,0.0,0.0,0.0,-0.617483534385,0.642604072817,0.0,0.0,0.0,0.0,0.0,0.0,3,1
2219572000000,206,2219571000000,world,0.892549557479,-0.710687678216,2.42637988972,0.765709609998,-0.576944801466,-0.0124852038786,-0.181709794201,0.136452401099,0.00294135152614,0.0,0.0,0.0,-0.615337779747,0.535877500182,0.0,0.0,0.0,0.0,0.0,0.0,3,1
2219581000000,207,2219581000000,world,0.900197557252,-0.716450261628,2.42625518415,0.763889261052,-0.575567682826,-0.0124559695346,-0.182359995008,0.138971326788,0.00290551727232,0.0,0.0,0.0,-0.613716991143,0.430017610518,0.0,0.0,0.0,0.0,0.0,0.0,3,1
2219591000000,208,2219591000000,world,0.907827321026,-0.722198947908,2.42613076914,0.762062410098,-0.57416537493,-0.0124270935331,-0.183010195816,0.141490252478,0.0028696830185,0.0,0.0,0.0,-0.6123451572,0.352192199541,0.0,0.0,0.0,0.0,0.0,0.0,3,1
2219601000000,209,2219601000000,world,0.915438783781,-0.727933485163,2.42600664109,0.760229057136,-0.572737877777,-0.0123985758742,-0.183660396623,0.144009178168,0.00283384876468,0.0,0.0,0.0,-0.611084134923,0.302198327441,0.0,0.0,0.0,0.0,0.0,0.0,3,1
2219612000000,210,2219612000000,world,0.923790177532,-0.734224833385,2.42587042741,0.758204859058,-0.571138537317,-0.012367620335,-0.184375617511,0.146779996426,0.00279443108547,0.0,0.0,0.0,-0.609805058539,0.267378834989,0.0,0.0,0.0,0.0,0.0,0.0,3,1
2219622000000,211,2219621000000,world,0.930606546151,-0.739359105026,2.42575923156,0.756542845187,-0.5698073157,-0.012342615584,-0.184960798237,0.149047029547,0.00276218025704,0.0,0.0,0.0,-0.608622321883,0.265104601532,0.0,0.0,0.0,0.0,0.0,0.0,3,1
2219631000000,212,2219631000000,world,0.938162715726,-0.745049683849,2.42563594292,0.754689986201,-0.568304250776,-0.0123151729527,-0.185610999045,0.151565955237,0.00272634600322,0.0,0.0,0.0,-0.607414013775,0.253383111553,0.0,0.0,0.0,0.0,0.0,0.0,3,1
2219642000000,213,2219642000000,world,0.946453061685,-0.75129180499,2.42550064017,0.752644331496,-0.566621785768,-0.0122853999439,-0.186326219932,0.154336773495,0.00268692832401,0.0,0.0,0.0,-0.60611478671,0.244803107114,0.0,0.0,0.0,0.0,0.0,0.0,3,1
2219651000000,214,2219651000000,world,0.953219306557,-0.756385119817,2.42539017995,0.750964762203,-0.565222553157,-0.0122613627177,-0.186911400659,0.156603806616,0.00265467749557,0.0,0.0,0.0,-0.604883537802,0.259206987847,0.0,0.0,0.0,0.0,0.0,0.0,3,1
2219661000000,215,2219661000000,world,0.960719597772,-0.762029473176,2.42526769846,0.749092397193,-0.563643920463,-0.012234995114,-0.187561601466,0.159122732306,0.00261884324175,0.0,0.0,0.0,-0.603607855918,0.257171682335,0.0,0.0,0.0,0.0,0.0,0.0,3,1
2219672000000,216,2219671000000,world,0.968201132827,-0.767657914262,2.42514547886,0.747213530174,-0.562040098511,-0.0122089858529,-0.188211802274,0.161641657995,0.00258300898793,0.0,0.0,0.0,-0.602295294267,0.259842006211,0.0,0.0,0.0,0.0,0.0,0.0,3,1
2219682000000,217,2219682000000,world,0.976409080422,-0.773830520147,2.42501133549,0.745139266634,-0.560246800773,-0.0121807895512,-0.188927023161,0.164412476254,0.00254359130873,0.0,0.0,0.0,-0.600879708871,0.258610584617,0.0,0.0,0.0,0.0,0.0,0.0,3,1
2219691000000,218,2219691000000,world,0.983107674377,-0.778866052044,2.42490181096,0.743436290113,-0.558756886837,-0.0121580423582,-0.189512203888,0.166679509375,0.00251134048029,0.0,0.0,0.0,-0.599537199704,0.278472977537,0.0,0.0,0.0,0.0,0.0,0.0,3,1
2219702000000,219,2219702000000,world,0.991273993656,-0.785002237811,2.42476822364,0.741347722155,-0.556908172734,-0.0121306344101,-0.190227424776,0.169450327633,0.00247192280109,0.0,0.0,0.0,-0.598073550942,0.272295467114,0.0,0.0,0.0,0.0,0.0,0.0,3,1
2219711000000,220,2219711000000,world,0.997938411045,-0.790007518022,2.42465914761,0.739633042019,-0.555372918136,-0.0121085322337,-0.190812605503,0.171717360754,0.00243967197265,0.0,0.0,0.0,-0.59667966742,0.291023680408,0.0,0.0,0.0,0.0,0.0,0.0,3,1
2219721000000,221,2219721000000,world,1.00532519,-0.795552619353,2.42453818367,0.73772166496,-0.5536431499,-0.0120843146852,-0.19146280631,0.174236286444,0.00240383771883,0.0,0.0,0.0,-0.59523246125,0.290232457253,0.0,0.0,0.0,0.0,0.0,0.0,3,1
2219731000000,222,2219731000000,world,1.01269282267,-0.801080297056,2.42441746012,0.735803785892,-0.551888192407,-0.0120604554793,-0.192113007117,0.176755212133,0.00236800346501,0.0,0.0,0.0,-0.593743033307,0.294059022874,0.0,0.0,0.0,0.0,0.0,0.0,3,1
2219741000000,223,2219741000000,world,1.02004124404,-0.806590299237,2.42429697337,0.733879404817,-0.550108045658,-0.0120369546159,-0.192763207924,0.179274137823,0.00233216921119,0.0,0.0,0.0,-0.592216781692,0.299654672916,0.0,0.0,0.0,0.0,0.0,0.0,3,1
2219752000000,224,2219752000000,world,1.0281022409,-0.812630585776,2.42416470717,0.731755075815,-0.548120790641,-0.0120115175518,-0.193478428812,0.182044956082,0.00229275153199,0.0,0.0,0.0,-0.590575636199,0.299022381271,0.0,0.0,0.0,0.0,0.0,0.0,3,1
2219761000000,225,2219761000000,world,1.0346801928,-0.817556269466,2.42405669593,0.730011136643,-0.546472184387,-0.0119910279167,-0.194063609539,0.184311989202,0.00226050070355,0.0,0.0,0.0,-0.58902228783,0.322105453859,0.0,0.0,0.0,0.0,0.0,0.0,3,1
2219771000000,226,2219771000000,world,1.04197059015,-0.823011733729,2.42393689808,0.728067249543,-0.544616469867,-0.011968602081,-0.194713810346,0.186830914892,0.00222466644973,0.0,0.0,0.0,-0.587416119721,0.321669537867,0.0,0.0,0.0,0.0,0.0,0.0,3,1
2219783000000,227,2219782000000,world,1.04996753529,-0.828991155749,2.42380537725,0.725921463914,-0.542546090303,-0.0119443475473,-0.195429031234,0.189601733151,0.00218524877053,0.0,0.0,0.0,-0.585681868396,0.318493980338,0.0,0.0,0.0,0.0,0.0,0.0,3,1
2219792000000,228,2219791000000,world,1.05649290569,-0.833866361086,2.42369796619,0.72415996932,-0.540829473055,-0.0119248254371,-0.19601421196,0.191868766271,0.00215299794209,0.0,0.0,0.0,-0.584038192904,0.341877600343,0.0,0.0,0.0,0.0,0.0,0.0,3,1
2219801000000,229,2219801000000,world,1.06372469383,-0.839265020396,2.42357882499,0.722196576196,-0.538898190764,-0.0119034746289,-0.196664412768,0.194387691961,0.00211716368827,0.0,0.0,0.0,-0.582337920636,0.340966026976,0.0,0.0,0.0,0.0,0.0,0.0,3,1
2219811000000,230,2219811000000,world,1.07093681554,-0.844644240937,2.4234598955,0.720226681065,-0.536941719216,-0.0118824821633,-0.197314613575,0.196906617651,0.00208132943445,0.0,0.0,0.0,-0.580592827185,0.344992358532,0.0,0.0,0.0,0.0,0.0,0.0,3,1
2219822000000,231,2219821000000,world,1.07812920578,-0.850003770816,2.42334117415,0.718250283925,-0.534960058411,-0.0118618480402,-0.197964814382,0.19942554334,0.00204549518063,0.0,0.0,0.0,-0.578808698032,0.350909094608,0.0,0.0,0.0,0.0,0.0,0.0,3,1
2219832000000,232,2219831000000,world,1.08530179954,-0.855343358141,2.42322265735,0.716267384777,-0.532953208349,-0.0118415722597,-0.198615015189,0.20194446903,0.00200966092681,0.0,0.0,0.0,-0.57698832522,0.357491828477,0.0,0.0,0.0,0.0,0.0,0.0,3,1
2219841000000,233,2219841000000,world,1.0924545318,-0.860662751019,2.42310434151,0.714277983621,-0.53092116903,-0.0118216548217,-0.199265215997,0.20446339472,0.00197382667299,0.0,0.0,0.0,-0.575133005864,0.364277849856,0.0,0.0,0.0,0.0,0.0,0.0,3,1
2219854000000,234,2219853000000,world,1.10101150179,-0.867019011138,2.42296262274,0.711882119583,-0.528449472029,-0.0117982269082,-0.200045456965,0.207486105547,0.00193082556841,0.0,0.0,0.0,-0.57304884166,0.355819275261,0.0,0.0,0.0,0.0,0.0,0.0,3,1
2219862000000,235,2219861000000,world,1.10670015174,-0.871239945864,2.4228682984,0.710279675285,-0.526781522622,-0.0117828949733,-0.200565617611,0.209501246099,0.00190215816535,0.0,0.0,0.0,-0.571222138358,0.406247550449,0.0,0.0,0.0,0.0,0.0,0.0,3,1
